rank,name,state,lat,lon,pasi,darkness,enclosure,acoustics,visibility,factors
1,Kuldhara Village,Rajasthan,26.8732,70.785,0.6868,1.0,0.6583,0.0196,0.9268,"Extreme Thar Desert isolation, high wind resonance corridors"
2,"Dow Hill, Kurseong",West Bengal,26.8812,88.2778,0.4806,0.9721,0.282,0.0204,0.5016,"Frequent fog, dense forest (high NDVI), steep Himalayan terrain"
3,Dumas Beach,Gujarat,21.1114,72.7118,0.442,0.0252,0.9705,0.0152,0.7015,"Coastal acoustic reflection, sea‑mist, low light"
4,"GP Block, Meerut",Uttar Pradesh,28.9815,77.7265,0.2625,0.0075,0.4798,0.0144,0.5671,"Urban acoustic isolation, historical structural decay"
5,Lambi Dehar Mines,Uttarakhand,30.4367,78.0263,0.2369,0.0162,0.2711,0.0556,0.6981,"Deep mountain enclosure, infrasound‑prone geological features"
6,Bhangarh Fort,Rajasthan,27.0965,76.2861,0.1768,0.0091,0.2291,0.0179,0.5087,"Isolated valley, steep terrain, very low nighttime illumination"
7,Shaniwar Wada,Maharashtra,18.5192,73.8553,0.0735,0.0067,0.0076,0.0587,0.2872,"Complex stone structure acoustics, historical enclosure"
